latitude,longitude,altitude,geometry,HID,Type,Kodomo,Name,Label,AgeS,AgeE,Full,Open,Close,H24,Memo,Extra,Temp,Holiday,Night,Add1,Add2,TEL,FAX,Owner,Ownership,Proof,Shanai,Y,X,url,Vacancy,VacancyDate
34.79781,137.87915,,,,,,三川幼稚園,三川幼稚園,,,,,,,,,,,,,友永113-1,,,,,,,34.79795534,137.8797923,,,
34.767,137.8909,,,,,,今井幼稚園,今井幼稚園,,,,,,,,,,,,,太田723-1,,,,,,,34.7669186,137.8913575,,,
34.75407,137.90051,,,,,,ひよこ幼児園,ひよこ幼児園,生後６か月, 応相談,85,7:30,18:30,,,,ｙ,,,,小山196-5,,,,,,,34.75358731,137.8989789,,,
34.79053,137.90211,,,,,,めいわ月見保育園,めいわ月見保育園,生後6か月,,90,7:15,18:15,,,,,,,,上山梨6-6-1,,,,,,,34.79048251,137.8998691,,,
34.75835,137.90088,,,,,,のびやかMIRAI保育園,のびやかMIRAI保育園,生後6か月,,60,7:00,18:00,,,,ｙ,,,,徳光36-1,,,,,,,34.75880249,137.9002107,,,
34.79174,137.9025,,,,,,すまいる保育園,すまいる保育園,生後6か月,2歳児,19,7:30,18:30,,,,ｙ,,,,上山梨1583-2,,,,,,,34.79184918,137.9020731,,,
34.77961,137.90523,,,,,,袋井ハローこども園（保育部）,袋井ハローこども園（保育部）,生後3か月,,100,7:00,18:00,,,,ｙ,,,,下山梨559-1,,,,,,,34.77894746,137.9050466,,,
34.78991,137.90543,,,,,,ＭＯＥ保育園やまなし園,ＭＯＥ保育園やまなし園,生後6か月,2歳児,12,7:30,18:30,,,,,,,,上山梨3-5-1,,,,,,,34.78991445,137.9056235,,,
34.72906,137.90782,,,,,,田原幼稚園,田原幼稚園,,,,,,,,,,,,,新池190-1,,,,,,,34.72925702,137.9076849,,,
34.79088,137.90741,,,,認可保育所,,明和第一保育園,明和第一保育園,生後6か月,,90,7:15,18:15,,,,,,,,上山梨831-3,,,,,,,34.79106862,137.9080668,,,
34.70399,137.90929,,,,,,浅羽西幼稚園,浅羽西幼稚園,,,,,,,,,,,,,長溝873-1,,,,,,,34.70381328,137.9094023,,,
34.752,137.90965,,,,,,堀越こもれび保育園,堀越こもれび保育園,生後3か月,2歳児,19,7:15,18:15,,,,ｙ,,,,堀越2-17-1,,,,,,,34.75192159,137.909532,,,
34.78629,137.90945,,,,,,ひだまり保育園,ひだまり保育園,生後６か月,,35,7:30,18:30,,,,ｙ,,,,月見町6-1,,,,,,,34.78609928,137.909456,,,
34.75877,137.91061,,,,,,若草こども園（保育部）,若草こども園（保育部）,３歳児,,60,7:15,18:15,,,,,,,,堀越766-1,,,,,,,34.75803869,137.9103248,,,
34.77839,137.9101,,,,,,ハローきっず,ハローきっず,生後4か月,2歳児,12,7:15,18:15,,,,,,,,下山梨1-13-18,,,,,,,34.77821382,137.9102568,,,
34.76023,137.91002,,,,,,ユニキッズ堀越第二保育園,ユニキッズ堀越第二保育園,生後２か月,2歳児,19,7:00,18:00,,,,ｙ,,,,堀越1169-5,,,,,,,34.76041148,137.911011,,,
34.7612,137.91116,,,,,,ユニキッズ堀越保育園,ユニキッズ堀越保育園,生後２か月,2歳児,19,7:00,18:00,,,,ｙ,,,,堀越1130-5,,,,,,,34.76108773,137.9111892,,,
34.74464,137.9142,,,,,,明和第二保育園,明和第二保育園,生後6か月,,90,7:15,18:15,,,,,,,,川井963-8,,,,,,,34.74468663,137.9141435,,,
34.75117,137.91451,,,,,,ＭＯＥ保育園てんじん園,ＭＯＥ保育園てんじん園,生後3か月,,60,7:30,18:30,,,,,,,,天神町3-2-6,,,,,,,34.75121788,137.9143078,,,
34.74496,137.91518,,,,,,袋井西幼稚園,袋井西幼稚園,,,,,,,,,,,,,川井568-1,,,,,,,34.74502597,137.9154621,,,
34.76231,137.91525,,,,,,袋井のびやか保育園,袋井のびやか保育園,生後6か月,2歳児,12,7:30,18:30,,,,ｙ,,,,久能1842-1,,,,,,,34.76217512,137.9154433,,,
34.75418,137.91554,,,,,,明和保育園 オハナ,明和保育園 オハナ,生後10か月,２歳児,15,7:30,18:30,,,,,,,,泉町2-10-16,,,,,,,34.754805,137.9155359,,,
34.72166,137.91818,,,,,,ルンビニこども園,ルンビニこども園,生後3か月,,90,7:00,18:00,,,,,,,,諸井1056-2,,,,,,,34.72131932,137.917972,,,
34.7658,137.91797,,,,,,袋井あそび保育園,袋井あそび保育園,生後3か月,,120,7:00,18:00,,,,ｙ,,,,久能1313,,,,,,,34.75922465,137.9199512,,,
34.77074,137.92198,,,,,,めいわ可睡保育園,めいわ可睡保育園,生後6か月,,90,7:15,18:15,,,,,,,,久能2991-1,,,,,,,34.77033335,137.9212005,,,
34.70693,137.9231,,,,,,浅羽北幼稚園,浅羽北幼稚園,,,,,,,,,,,,,浅名41,,,,,,,34.70740039,137.9228744,,,
34.74311,137.92291,,,,,,スクルドエンジェル保育園三門園,スクルドエンジェル保育園三門園,生後２か月,2歳児,19,7:00,18:00,,,,ｙ,,,,三門町5-2,,,,,,,34.74315751,137.9236934,,,
34.73951,137.92453,,,,,,ルンビニあゆみ園（保育部）,ルンビニあゆみ園（保育部）,生後3か月,,120,7:00,18:00,,,,,,,,高尾1777-1,,,,,,,34.73911639,137.9237607,,,
34.71315,137.92456,,,,,,ルンビニ保育室 花びら,ルンビニ保育室 花びら,生後3か月,2歳児,12,7:30,18:30,,,,,,,,浅羽2275-1,,,,,,,34.71371579,137.9244631,,,
34.75366,137.92479,,,,,,どんぐり保育園,どんぐり保育園,2歳児,,60,7:00,18:00,,,,ｙ,,,,旭町2-13-5,,,,,,,34.75385099,137.9247634,,,
34.74506,137.92549,,,,,,どんぐり保育園ベビー,どんぐり保育園ベビー,生後6か月,１歳児,60,7:00,18:00,,,,ｙ,,,,高尾町15-4,,,,,,,34.7444168,137.9254943,,,
34.74196,137.92647,,,,,,ふくろい駅前キラット保育園,ふくろい駅前キラット保育園,生後3か月,2歳児,19,7:30,18:30,,,,ｙ,,,,高尾町26-2,,,,,,,34.74191835,137.9262798,,,
34.74815,137.92635,,,,,,こどもサポートかみふうせん,こどもサポートかみふうせん,生後3か月,2歳児,19,7:30,18:30,,,,ｙ,,,,方丈2-5-2,,,,,,,34.74738134,137.9265152,,,
34.72008,137.92894,,,,,,浅羽東こども園（保育部）,浅羽東こども園（保育部）,生後6か月,,66,7:15,18:15,,,,,,,,浅羽2617-1,,,,,,,34.72017074,137.9289127,,,
34.74846,137.92966,,,,,,小規模保育所 風かおる,小規模保育所 風かおる,生後6か月,2歳児,12,7:30,18:30,,,,,,,,方丈4-1-21,,,,,,,34.7483682,137.9297675,,,
34.68029,137.93274,,,,,,あさば保育園,あさば保育園,生後6か月,,70,7:00,18:00,,,,ｙ,,,,松原1803-3,,,,,,,34.68010579,137.9326706,,,
34.68121,137.9321,,,,,,浅羽南幼稚園,浅羽南幼稚園,,,,,,,,,,,,,松原1793,,,,,,,34.68116945,137.9329967,,,
34.72652,137.93747,,,,,,ももいろ保育園,ももいろ保育園,生後3か月,2歳児,19,7:15,18:15,,,,,,,,浅羽3419-19,,,,,,,34.72630159,137.936962,,,
34.75241,137.93741,,,,,,たんぽぽ第二保育園,たんぽぽ第二保育園,生後6か月,,70,7:05,18:05,,,,,,,,広岡1115-10,,,,,,,34.75266667,137.9368878,,,
34.76151,137.93901,,,,,,袋井東幼稚園,袋井東幼稚園,,,,,,,,,,,,,国本2288,,,,,,,34.76079178,137.9379414,,,
34.69876,137.95398,,,,,,笠原こども園（保育部）,笠原こども園（保育部）,生後6か月,,50,7:15,18:15,,,,ｙ,,,,山崎5093-13,,,,,,,34.70000447,137.9549366,,,
34.75127,137.95671,,,,認可外保育所,,愛ノ宮保育園,愛ノ宮保育園,生後6か月,,160,7:15,20:15,,,,ｙ,,,,愛野東1-6-4,,,,,,,34.75119817,137.9564393,,,
34.75388,137.96126,,,,,,たんぽぽ保育園,たんぽぽ保育園,生後6か月,,90,7:05,18:05,,,,ｙ,,,,愛野東2-6-4,,,,,,,34.75397027,137.9613686,,,
34.74882,137.9622,,,,,,浜松学院大学付属愛野こども園(保育部門),浜松学院大学付属愛野こども園(保育部門),生後6か月,,90,7:00,18:00,,,,ｙ,,,,愛野南2-2-3,,,,,,,34.74893777,137.9619118,,,
34.74783,137.96837,,,,,,愛野みらい保育園,愛野みらい保育園,生後6か月,2歳児,19,7:30,18:30,,,,ｙ,,,,愛野南3-6-7,,,,,,,34.74769466,137.9674414,,,
34.79351,137.91089,,,,,ｙ,山梨こども園,山梨こども園,,,,,,,,,,,,,,,,,,,,,,,,
34.7658,137.91797,,,,,ｙ,若葉こども園,若葉こども園,,,,,,,,,,,,,,,,,,,,,,,,
34.73684,137.93391,,,,,,子育てセンターにじいろ,子育てセンターにじいろ,,,,,,,,,,,,,,,,,,,,,,,,
34.7079,137.92065,,,,,,ルンビニひかり園,ルンビニひかり園,,,,,,,,,,,,,,,,,,,,,,,,
34.69876,137.95398,,,,,ｙ,笠原こども園,笠原こども園,,,,,,,,,,,,,,,,,,,,,,,,
34.75877,137.91061,,,,,ｙ,若草こども園,若草こども園,,,,,,,,,,,,,,,,,,,,,,,,
34.72008,137.92894,,,,,ｙ,浅羽東こども園,浅羽東こども園,,,,,,,,,,,,,,,,,,,,,,,,
34.79351,137.91089,,,,,ｙ,山梨こども園,山梨こども園,,,,,,,,,,,,,,,,,,,,,,,,
34.7658,137.91797,,,,,ｙ,若葉こども園,若葉こども園,,,,,,,,,,,,,,,,,,,,,,,,
34.74073,137.92267,,,,幼稚園,,山名幼稚園,山名幼稚園,,,,,,,,,,,,,,,,,,,,,,,,
34.74882,137.9622,,,,,,愛野こども園(教育部),愛野こども園(教育部),,,,,,,,,,,,,,,,,,,,,,,,
34.77961,137.90523,,,,,,袋井ハローこども園(幼稚園部),袋井ハローこども園(幼稚園部),,,,,,,,,,,,,,,,,,,,,,,,
34.73951,137.92453,,,,,,ルンビニあゆみ園（幼稚園部）,ルンビニあゆみ園（幼稚園部）,,,,,,,,,,,,,,,,,,,,,,,,
34.72166,137.91818,,,,,,ルンビニこども園（幼稚園部）,ルンビニこども園（幼稚園部）,,,,,,,,,,,,,,,,,,,,,,,,
34.73684,137.93391,,,,,,子育てセンターにじいろ（幼児部）,子育てセンターにじいろ（幼児部）,,,,,,,,,,,,,,,,,,,,,,,,
34.7079,137.92065,,,,,,ルンビニひかり園（幼稚園部）,ルンビニひかり園（幼稚園部）,,,,,,,,,,,,,,,,,,,,,,,,
